{
  "lieux": [
    {
      "theme": "food",
      "nom": "Nobi Nobi",
      "detail": "Fastfood Japonnais",
      "picto": "🍜",
      "lat": 48.511764,
      "lng": -2.759258
    },
    {
      "theme": "food",
      "nom": "BAZAAR HALL",
      "detail": "Complexe de resto/bar ",
      "picto": "🍕",
      "lat": 48.504974,
      "lng": -2.743975
    },
    {
      "theme": "food",
      "nom": "1701",
      "detail": "Un bon bar sympa (mini terrasse à l'interieur des murs)",
      "picto": "🍺",
      "lat": 48.515403,
      "lng": -2.760398
    },
    {
      "theme": "food",
      "nom": "Port du Légué — resto",
      "detail": "moules, coquilles Saint-Jacques",
      "picto": "🦪",
      "lat": 48.5286,
      "lng": -2.7415
    },
    {
      "theme": "place",
      "nom": "Cathédrale Saint-Étienne",
      "detail": "cathédrale-forteresse du XIIIe",
      "picto": "⛪",
      "lat": 48.5139,
      "lng": -2.7647
    },
    {
      "theme": "place",
      "nom": "Pointe du Roselier",
      "detail": "panorama sur la baie (Plérin)",
      "picto": "🌊",
      "lat": 48.5481,
      "lng": -2.7222
    },
    {
      "theme": "place",
      "nom": "Port du Légué",
      "detail": "vieux gréements & quais",
      "picto": "⚓",
      "lat": 48.529,
      "lng": -2.74
    },
    {
      "theme": "place",
      "nom": "Vallée de Gouédic",
      "detail": "balade verte en pleine ville",
      "picto": "🌳",
      "lat": 48.5075,
      "lng": -2.756
    },
    {
      "theme": "shopping",
      "nom": "Boutique ésotérique",
      "detail": "pierres, minéraux & encens",
      "picto": "🔮",
      "lat": 48.5137,
      "lng": -2.7643
    },
    {
      "theme": "shopping",
      "nom": "Biscuiterie / caramels",
      "detail": "beurre salé à rapporter",
      "picto": "🍬",
      "lat": 48.5144,
      "lng": -2.7656
    },
    {
      "theme": "shopping",
      "nom": "Rue Saint-Guillaume",
      "detail": "commerces du centre piéton",
      "picto": "🛍️",
      "lat": 48.5131,
      "lng": -2.7648
    },
    {
      "theme": "shopping",
      "nom": "Disquaire / créateurs",
      "detail": "vinyles & artisanat local",
      "picto": "🎵",
      "lat": 48.5126,
      "lng": -2.7635
    },
    {
      "theme": "activity",
      "nom": "Bowling de Brézillet",
      "detail": "strike & frites",
      "picto": "🎳",
      "lat": 48.4987,
      "lng": -2.7539
    },
    {
      "theme": "activity",
      "nom": "Ciné (Trégueux / centre)",
      "detail": "séance du soir",
      "picto": "🎬",
      "lat": 48.4906,
      "lng": -2.7448
    },
    {
      "theme": "activity",
      "nom": "Bars de la vieille ville",
      "detail": "rue Fardel & alentours",
      "picto": "🍺",
      "lat": 48.5145,
      "lng": -2.766
    },
    {
      "theme": "activity",
      "nom": "Patinoire de Brézillet",
      "detail": "glisse en famille",
      "picto": "⛸️",
      "lat": 48.4995,
      "lng": -2.7525
    }
  ]
}