{
  "lieux": [
    {
      "theme": "food",
      "nom": "Nobi Nobi",
      "detail": "Fastfood Japonnais",
      "picto": "🍜",
      "lat": 48.511764,
      "lng": -2.759258
    },
    {
      "theme": "food",
      "nom": "BAZAAR HALL",
      "detail": "Complexe de resto/bar ",
      "picto": "🍕",
      "lat": 48.504974,
      "lng": -2.743975
    },
    {
      "theme": "food",
      "nom": "1701",
      "detail": "Un bon bar sympa (mini terrasse à l'interieur des murs)",
      "picto": "🍺",
      "lat": 48.515403,
      "lng": -2.760398
    },
    {
      "theme": "food",
      "nom": "Columbus Café",
      "detail": "Café chill",
      "picto": "☕",
      "lat": 48.511921,
      "lng": -2.759647
    },
    {
      "theme": "place",
      "nom": "Cathédrale Saint-Étienne",
      "detail": "cathédrale-forteresse du XIIIe",
      "picto": "⛪",
      "lat": 48.514186,
      "lng": -2.763917
    },
    {
      "theme": "place",
      "nom": "Coin paisible bord de mer",
      "detail": "Sentier des oiseaux",
      "picto": "✨",
      "lat": 48.529038,
      "lng": -2.716351
    },
    {
      "theme": "place",
      "nom": "Vue sur la vallée",
      "detail": "Coin passible",
      "picto": "🪨",
      "lat": 48.51831,
      "lng": -2.750737
    },
    {
      "theme": "place",
      "nom": "Vallée de Gouédic",
      "detail": "balade verte en pleine ville",
      "picto": "🌳",
      "lat": 48.511372,
      "lng": -2.753835
    },
    {
      "theme": "shopping",
      "nom": "Boutique style ésotérique",
      "detail": "dans le style, par forcément ésotérique",
      "picto": "🌞",
      "lat": 48.512896,
      "lng": -2.761026
    },
    {
      "theme": "shopping",
      "nom": "Mysticrue",
      "detail": "Rue avec boutique sympa",
      "picto": "🍄",
      "lat": 48.514428,
      "lng": -2.761299
    },
    {
      "theme": "shopping",
      "nom": "Rue Saint-Guillaume",
      "detail": "commerces du centre piéton",
      "picto": "🛍️",
      "lat": 48.5131,
      "lng": -2.7648
    },
    {
      "theme": "shopping",
      "nom": "Disquaire / créateurs",
      "detail": "vinyles & artisanat local",
      "picto": "🎵",
      "lat": 48.5126,
      "lng": -2.7635
    },
    {
      "theme": "activity",
      "nom": "Bowling de Brézillet",
      "detail": "strike & frites",
      "picto": "🎳",
      "lat": 48.4987,
      "lng": -2.7539
    },
    {
      "theme": "activity",
      "nom": "Ciné (Trégueux / centre)",
      "detail": "séance du soir",
      "picto": "🎬",
      "lat": 48.4906,
      "lng": -2.7448
    },
    {
      "theme": "activity",
      "nom": "Bars de la vieille ville",
      "detail": "rue Fardel & alentours",
      "picto": "🍺",
      "lat": 48.5145,
      "lng": -2.766
    },
    {
      "theme": "activity",
      "nom": "Patinoire de Brézillet",
      "detail": "glisse en famille",
      "picto": "⛸️",
      "lat": 48.4995,
      "lng": -2.7525
    }
  ]
}